OBJECTNUMMER;Naam;Adres;Stemdistrict;Toegankelijkheid_code;Toegankelijkheid;Open_speciaal;Openingstijden;Stadsdeel;LNG;LAT
1;Stadhuis;Amstel 1;001-002;AP;rolstoeltoegankelijk met GPA;0;7:30 - 21:00 uur;Centrum;4.900158;52.367597
2;Universiteitsbibliotheek Amsterdam;Singel 425;3;A;rolstoeltoegankelijk;0;7:30 - 21:00 uur;Centrum;4.889718;52.367679
3;Leger des Heils;Oudezijds Achterburgwal 45;4;A;rolstoeltoegankelijk;0;7:30 - 21:00 uur;Centrum;4.899359;52.373543
4;Kensho Premium Fitness;Czaar Peterstraat 22;5;AP;rolstoeltoegankelijk met GPA;0;7:30 - 21:00 uur;Centrum;4.927938;52.368948
5;OBS De Witte Olifant;Nieuwe Batavierstraat 2;6;AP;rolstoeltoegankelijk met GPA;0;7:30 - 21:00 uur;Centrum;4.904181;52.370274
6;Voormalige Stadstimmertuin;Voorm Stadstimmertuin 4-6;7;AP;rolstoeltoegankelijk met GPA;0;7:30 - 21:00 uur;Centrum;4.905703;52.361283
7;OBS De Witte Olifant;Gymlokaal tegenover Lastageweg 4-18;8;B;rolstoeltoegankelijk met hulp;0;7:30 - 21:00 uur;Centrum;4.902697;52.373099
8;Brandweer Kazerne Hendrik;Marnixstraat 170;9;A;rolstoeltoegankelijk;0;7:30 - 21:00 uur;Centrum;4.875699;52.372527
9;Cultura Nederland;Singel 46;10;C;niet rolstoeltoegankelijk;0;7:30 - 21:00 uur;Centrum;4.892701;52.378019
10;Ouder-Kind teams Amsterdam;Kraijenhoffstraat 32 C;11;AP;rolstoeltoegankelijk met GPA;0;7:30 - 21:00 uur;Centrum;4.930003;52.369468
11;Theo Thijssenschool;Anjeliersstraat 153;12;AP;rolstoeltoegankelijk met GPA;0;7:30 - 21:00 uur;Centrum;4.881108;52.377215
12;Korfbalvereniging Swift;Plantage Parklaan 20 A;13;AP;rolstoeltoegankelijk met GPA;0;7:30 - 21:00 uur;Centrum;4.909754;52.368184
13;De Vinse School;Palmstraat 7;15;A;rolstoeltoegankelijk;0;7:30 - 21:00 uur;Centrum;4.884626;52.381714
14;Jeugdtheater De Krakeling;Nieuwe Passeerdersstraat 1;18;B;rolstoeltoegankelijk met hulp;0;7:30 - 21:00 uur;Centrum;4.879117;52.366421
15;Ouder-Kind teams Amsterdam;Kraijenhoffstraat 32 C;20;AP;rolstoeltoegankelijk met GPA;0;7:30 - 21:00 uur;Centrum;4.930003;52.369468
16;American Hotel Amsterdam;Leidsekade 97;21;B;rolstoeltoegankelijk met hulp;0;7:30 - 21:00 uur;Centrum;4.881026;52.363823
17;Motivaction International BV;Marnixkade 109 F;23;AP;rolstoeltoegankelijk met GPA;0;7:30 - 21:00 uur;Centrum;4.876549;52.375236
18;Het Claverhuis;Elandsgracht 70;24;AP;rolstoeltoegankelijk met GPA;0;7:30 - 21:00 uur;Centrum;4.880913;52.369853
19;Huis van de Buurt De Boomsspijker;Recht Boomssloot 52;25;AP;rolstoeltoegankelijk met GPA;0;7:30 - 21:00 uur;Centrum;4.903488;52.371951
20;Kerk De Duif;Prinsengracht 756;026-027;AP;rolstoeltoegankelijk met GPA;0;7:30 - 21:00 uur;Centrum;4.896702;52.361444
21;Grand Hotel Amrath;Prins Hendrikkade 108;28;B;rolstoeltoegankelijk met hulp;0;7:30 - 21:00 uur;Centrum;4.903884;52.37464
22;Posthoornkerk;Haarlemmerstraat 124-126;029-030;B;rolstoeltoegankelijk met hulp;0;7:30 - 21:00 uur;Centrum;4.890404;52.381128
23;Atria Kennisinstituut;Vijzelstraat 20;31;B;rolstoeltoegankelijk met hulp;0;7:30 - 21:00 uur;Centrum;4.892838;52.365706
24;School De Eilanden;Grote Bickersstraat 102;032-033;AP;rolstoeltoegankelijk met GPA;0;7:30 - 21:00 uur;Centrum;4.890062;52.38677
25;Crea Cultureel Studentencentrum;Nieuwe Achtergracht 170;34;AP;rolstoeltoegankelijk met GPA;0;7:30 - 21:00 uur;Centrum;4.912861;52.36328
26;Doopsgezinde Singelkerk;Singel 452;35;A;rolstoeltoegankelijk;0;7:30 - 21:00 uur;Centrum;4.888631;52.367702
27;Dr. Sarphatihuis;Roetersstraat 2;038-039;AP;rolstoeltoegankelijk met GPA;0;7:30 - 21:00 uur;Centrum;4.910555;52.364691
28;Het Cromhouthuis;Herengracht 366;40;B;rolstoeltoegankelijk met hulp;0;7:30 - 21:00 uur;Centrum;4.886331;52.368528
29;Architectuur Centrum Amsterdam (ARCAM);Prins Hendrikkade 600;41;B;rolstoeltoegankelijk met hulp;0;7:30 - 21:00 uur;Centrum;4.912479;52.371503
30;Akhnaton;Nieuwezijds Kolk 25;42;B;rolstoeltoegankelijk met hulp;0;7:30 - 21:00 uur;Centrum;4.894176;52.376137
31;De Witte Boei;Kleine Wittenburgerstr 201;043-044;AP;rolstoeltoegankelijk met GPA;0;7:30 - 21:00 uur;Centrum;4.921819;52.371414
32;NH Caransa;Rembrandtplein 19;45;A;rolstoeltoegankelijk;0;7:30 - 21:00 uur;Centrum;4.897043;52.366443
33;Woonzorgcentrum De Rietvinck;Vinkenstraat 185;46;AP;rolstoeltoegankelijk met GPA;0;7:30 - 21:00 uur;Centrum;4.883749;52.383877
34;De Kleine BOE;Kleine Wittenburgerstr 100;047-048;AP;rolstoeltoegankelijk met GPA;0;7:30 - 21:00 uur;Centrum;4.920931;52.3707
35;Crea Cultureel Studentencentrum;Nieuwe Achtergracht 170;49;AP;rolstoeltoegankelijk met GPA;0;7:30 - 21:00 uur;Centrum;4.912861;52.36328
36;Woonzorgcentrum De Rietvinck;Vinkenstraat 185;50;AP;rolstoeltoegankelijk met GPA;0;7:30 - 21:00 uur;Centrum;4.883749;52.383877
37;De Toneelmakerij;Lauriergracht 99 C;51;C;niet rolstoeltoegankelijk;0;7:30 - 21:00 uur;Centrum;4.878745;52.370725
38;Galerie Fontana;Lauriergracht 11;52;A;rolstoeltoegankelijk;0;7:30 - 21:00 uur;Centrum;4.882141;52.371584
39;Basisschool de Kleine Reus;Nieuwe Looiersstraat 9;053-054;AP;rolstoeltoegankelijk met GPA;0;7:30 - 21:00 uur;Centrum;4.89226;52.360868
40;Het Marnix;Marnixplein 1;56;AP;rolstoeltoegankelijk met GPA;0;7:30 - 21:00 uur;Centrum;4.878485;52.377985
41;Centraal Station - Restaurant 1e klas;Stationspln 15-Perron 2B;057-058;A;rolstoeltoegankelijk;1;6:30 - 21:00 uur;Centrum;4.900167;52.378822
42;American Hotel Amsterdam;Leidsekade 97;59;B;rolstoeltoegankelijk met hulp;0;7:30 - 21:00 uur;Centrum;4.881026;52.363823
43;Stichting De Oude Gracht;Keizersgracht 218 B;060-061;B;rolstoeltoegankelijk met hulp;0;7:30 - 21:00 uur;Centrum;4.884545;52.373239
44;Noorderkerk;Noordermarkt 44;62;AP;rolstoeltoegankelijk met GPA;0;7:30 - 21:00 uur;Centrum;4.88631;52.379538
45;Het Bushuis;Kloveniersburgwal 48;63;AP;rolstoeltoegankelijk met GPA;0;7:30 - 21:00 uur;Centrum;4.898126;52.370797
46;UvA - locatie P.C. Hoofthuis;Spuistraat 134 - 3e etage;64;AP;rolstoeltoegankelijk met GPA;0;7:30 - 21:00 uur;Centrum;4.889837;52.374097
47;De Vinse School;Palmstraat 7;65;A;rolstoeltoegankelijk;0;7:30 - 21:00 uur;Centrum;4.884626;52.381714
48;De Rode Hoed;Keizersgracht 100;66;B;rolstoeltoegankelijk met hulp;0;7:30 - 21:00 uur;Centrum;4.887275;52.377349
49;Noorderkerk;Noordermarkt 44;67;AP;rolstoeltoegankelijk met GPA;0;7:30 - 21:00 uur;Centrum;4.88631;52.379538
50;Museumwerf `t Kromhout;Kruithuisstraat 25;068-069;B;rolstoeltoegankelijk met hulp;0;7:30 - 21:00 uur;Centrum;4.920445;52.367975
51;Amsterdam Museum;Sint Luciënsteeg 27;70;AP;rolstoeltoegankelijk met GPA;0;7:30 - 21:00 uur;Centrum;4.890714;52.370488
52;Bezoekerscentrum De Nederlandsche Bank;Sarphatistraat 1 - 3;071-072;AP;rolstoeltoegankelijk met GPA;0;7:30 - 21:00 uur;Centrum;4.901311;52.360187
53;Academie voor Theater en Dans;Jodenbreestraat 3;73;A;rolstoeltoegankelijk;0;7:30 - 21:00 uur;Centrum;4.901663;52.369598
54;Conservatorium van Amsterdam;Oosterdokskade 151;74;AP;rolstoeltoegankelijk met GPA;0;7:30 - 21:00 uur;Centrum;4.908907;52.375955
55;Ateliers Westerdok;Westerdok 318;76;AP;rolstoeltoegankelijk met GPA;0;7:30 - 21:00 uur;Centrum;4.891647;52.384314
56;De Noorderspeeltuin;Tweede Lindendwarsstraat 10;80;B;rolstoeltoegankelijk met hulp;0;7:30 - 21:00 uur;Centrum;4.882447;52.379539
57;OBA Javaplein;Javaplein 2;81;AP;rolstoeltoegankelijk met GPA;0;7:30 - 21:00 uur;Oost;4.938764;52.364154
58;Kindervreugd;Kramatweg 31 A;82;AP;rolstoeltoegankelijk met GPA;0;7:30 - 21:00 uur;Oost;4.946451;52.364776
59;Flevoparkschool;Soembawastraat 61;84;AP;rolstoeltoegankelijk met GPA;0;7:30 - 21:00 uur;Oost;4.943967;52.363554
60;Verenigingsgebouw Batavia;Tidorestraat 107;87;AP;rolstoeltoegankelijk met GPA;0;7:30 - 21:00 uur;Oost;4.940738;52.36054
61;Havo De Hof;Ingang Wijttenbachstraat;88;B;rolstoeltoegankelijk met hulp;0;7:30 - 21:00 uur;Oost;4.929081;52.360648
62;Flevoparkschool;Soembawastraat 61;90;AP;rolstoeltoegankelijk met GPA;0;7:30 - 21:00 uur;Oost;4.943967;52.363554
63;Loods 6;KNSM-laan 143;91;AP;rolstoeltoegankelijk met GPA;0;7:30 - 21:00 uur;Oost;4.938778;52.377267
64;OBS De Kleine Kapitein;Tosaristraat 30 A;92;A;rolstoeltoegankelijk;0;7:30 - 21:00 uur;Oost;4.922795;52.37921
65;Int. Instituut voor Sociale Geschiedenis;Cruquiusweg 31;93;AP;rolstoeltoegankelijk met GPA;0;7:30 - 21:00 uur;Oost;4.939289;52.368875
66;De Nieuwe KHL;Oostelijke Handelskade 44;94;B;rolstoeltoegankelijk met hulp;0;7:30 - 21:00 uur;Oost;4.936285;52.374049
67;A08 Events Amsterdam;KNSM-laan 808;95;AP;rolstoeltoegankelijk met GPA;0;7:30 - 21:00 uur;Oost;4.946346;52.376765
68;Basisschool Onze Toekomst;Bataviastraat 24 bg;97;AP;rolstoeltoegankelijk met GPA;0;7:30 - 21:00 uur;Oost;4.94217;52.361228
69;BAC Amsterdam;R.J.H. Fortuynplein 4;98;AP;rolstoeltoegankelijk met GPA;0;7:30 - 21:00 uur;Oost;4.946599;52.372057
70;Int. Instituut voor Sociale Geschiedenis;Cruquiusweg 31;99;AP;rolstoeltoegankelijk met GPA;0;7:30 - 21:00 uur;Oost;4.939229;52.368973
71;De Eester;C. van Eesterenlaan 266;100;AP;rolstoeltoegankelijk met GPA;0;7:30 - 21:00 uur;Oost;4.938125;52.370713
72;Stichting Meevaart;Balistraat 48A;101;AP;rolstoeltoegankelijk met GPA;0;7:30 - 21:00 uur;Oost;4.933901;52.363021
73;Basisschool de Waaier;Obiplein t.o. 87. zij-ingang;103;AP;rolstoeltoegankelijk met GPA;0;7:30 - 21:00 uur;Oost;4.938816;52.36046
74;Stayokay Amsterdam Oost;Timorplein 21;104-106;AP;rolstoeltoegankelijk met GPA;0;7:30 - 21:00 uur;Oost;4.935507;52.365355
75;De Indische Buurt School;Balistraat 79;107;B;rolstoeltoegankelijk met hulp;0;7:30 - 21:00 uur;Oost;4.934707;52.363222
76;Stichting Flexbieb IJburg;Talbotstr 46 - ingang Maria Austriastraat;108;A;rolstoeltoegankelijk;0;7:30 - 21:00 uur;Oost;4.994624;52.357755
77;De Binnenwaai;Ed Pelsterpark 2;109;A;rolstoeltoegankelijk;0;7:30 - 21:00 uur;Oost;4.995941;52.356618
78;Basisschool De Archipel;Franz Zieglerstraat 11;110;A;rolstoeltoegankelijk;0;7:30 - 21:00 uur;Oost;5.007258;52.353159
79;OBA IJburg;Diemerparklaan 79;111;A;rolstoeltoegankelijk;0;7:30 - 21:00 uur;Oost;4.996939;52.356613
80;Montessorischool Steigereiland;John Hadleystraat 4;112;B;rolstoeltoegankelijk met hulp;0;7:30 - 21:00 uur;Oost;4.982205;52.360985
81;abbs De Zuiderzee;Brigantijnkade 51;113;A;rolstoeltoegankelijk;0;7:30 - 21:00 uur;Oost;4.987533;52.362738
82;Café Kanis en Meiland;Levantkade 127;114;AP;rolstoeltoegankelijk met GPA;0;7:30 - 21:00 uur;Oost;4.940506;52.376339
83;IJburg College 1;Pampuslaan 1;115;A;rolstoeltoegankelijk;0;7:30 - 21:00 uur;Oost;5.004339;52.351289
84;MKC Zeeburgereiland;Faas Wilkesstraat 451;117;A;rolstoeltoegankelijk;0;7:30 - 21:00 uur;Oost;4.969942;52.372456
85;Willibrordschool IJburg;Diemerparklaan 11;118;A;rolstoeltoegankelijk;0;7:30 - 21:00 uur;Oost;4.993494;52.354453
86;IJburg College 2;Geertje Wielemaplein 1;119;A;rolstoeltoegankelijk;0;7:30 - 21:00 uur;Oost;4.968938;52.371499
87;Basisschool Frankendael. locatie Hogeweg;Hogeweg 63;120;AP;rolstoeltoegankelijk met GPA;0;7:30 - 21:00 uur;Oost;4.93485;52.356338
88;Basisschool De Dapper;Pieter Nieuwlandstraat 3;122;AP;rolstoeltoegankelijk met GPA;0;7:30 - 21:00 uur;Oost;4.926165;52.36149
89;Kinderboerderij De Werf;Archimedeslaan 59;123;A;rolstoeltoegankelijk;0;7:30 - 21:00 uur;Oost;4.944795;52.354084
90;The Student Hotel Amsterdam City;Wibautstraat 129;125;A;rolstoeltoegankelijk;0;7:30 - 21:00 uur;Oost;4.913203;52.354564
91;Hogeschool van Amsterdam. Wibauthuis;Wibautstraat 3 A;126;AP;rolstoeltoegankelijk met GPA;0;7:30 - 21:00 uur;Oost;4.909481;52.359438
92;Ouderencentrum De Gooyer;Von Zesenstraat 298;128;AP;rolstoeltoegankelijk met GPA;0;7:30 - 21:00 uur;Oost;4.926929;52.364316
93;Woonzorgcentrum Kastanjehof;Kastanjeplein 60;129;A;rolstoeltoegankelijk;0;7:30 - 21:00 uur;Oost;4.923098;52.358575
94;Sportzaal J.F. van Hengelstraat;J.F. van Hengelstraat 100;130;AP;rolstoeltoegankelijk met GPA;0;7:30 - 21:00 uur;Oost;4.945738;52.374399
95;Openbare Basisschool De Kaap;Christiaan de Wetstraat 23;131;AP;rolstoeltoegankelijk met GPA;0;7:30 - 21:00 uur;Oost;4.919061;52.354461
96;Gymzaal Villa Bons;Galileiplantsoen 39;133;C;niet rolstoeltoegankelijk;0;7:30 - 21:00 uur;Oost;4.938894;52.354169
97;Buurtcentrum Kraaipan;Hofmeyrstraat 67;134;AP;rolstoeltoegankelijk met GPA;0;7:30 - 21:00 uur;Oost;4.917362;52.351327
98;Montessori College Oost;Polderweg 3;135;AP;rolstoeltoegankelijk met GPA;0;7:30 - 21:00 uur;Oost;4.929797;52.358062
99;Verenigingsgebouw O Pontania;Roomtuintjes 233;136;A;rolstoeltoegankelijk;0;7:30 - 21:00 uur;Oost;4.92912;52.365411
100;Gymzaal Metis Montessori Lyceum;Tweede Oosterparkstraat 33;137;AP;rolstoeltoegankelijk met GPA;0;7:30 - 21:00 uur;Oost;4.912936;52.356172
101;Hofkerk;Linnaeushof 94. Ingang Pastorie;138;A;rolstoeltoegankelijk;0;7:30 - 21:00 uur;Oost;4.933461;52.3529
102;Gymzaal Metis Montessori Lyceum;Tweede Oosterparkstraat 33;139;AP;rolstoeltoegankelijk met GPA;0;7:30 - 21:00 uur;Oost;4.912936;52.356172
103;Sporthal Wethouder Verheij;Polderweg 300;140;AP;rolstoeltoegankelijk met GPA;0;7:30 - 21:00 uur;Oost;4.931355;52.35788
104;Servicepunt Het Brinkhuis;Brink 45;141-142;AP;rolstoeltoegankelijk met GPA;0;7:30 - 21:00 uur;Oost;4.943263;52.339986
105;Barbaraschool;Eikenplein 3;143;AP;rolstoeltoegankelijk met GPA;0;7:30 - 21:00 uur;Oost;4.921884;52.358166
106;Café Restaurant Polder;Science Park 203;144;AP;rolstoeltoegankelijk met GPA;0;7:30 - 21:00 uur;Oost;4.952643;52.354625
107;Kerk de Bron;Middenweg 74;145;A;rolstoeltoegankelijk;0;7:30 - 21:00 uur;Oost;4.934554;52.350828
108;Gymzaal Villa Bons;Galileiplantsoen 39;146;C;niet rolstoeltoegankelijk;0;7:30 - 21:00 uur;Oost;4.938894;52.354169
109;UvA Science Park;Science Park 904;147;AP;rolstoeltoegankelijk met GPA;0;7:30 - 21:00 uur;Oost;4.955698;52.354412
110;Koningskerk;Van `t Hofflaan 20;148;AP;rolstoeltoegankelijk met GPA;0;7:30 - 21:00 uur;Oost;4.936267;52.348336
111;De Krugerkamer;Krugerplein 17;150;AP;rolstoeltoegankelijk met GPA;0;7:30 - 21:00 uur;Oost;4.920635;52.354135
112;Basisschool Frankendael (Von Liebigweg);Von Liebigweg 68;151;AP;rolstoeltoegankelijk met GPA;0;7:30 - 21:00 uur;Oost;4.927112;52.342413
113;Tugelahuis;Tugelaweg 59 A;152;AP;rolstoeltoegankelijk met GPA;0;7:30 - 21:00 uur;Oost;4.920764;52.355816
114;Buurtcentrum Oosterpark;Derde Oosterparkstraat 159;153;AP;rolstoeltoegankelijk met GPA;0;7:30 - 21:00 uur;Oost;4.920232;52.357522
115;Scouting Oost 1;Kruislaan 224;154;C;niet rolstoeltoegankelijk;0;7:30 - 21:00 uur;Oost;4.943774;52.349056
116;Wijkservicepunt Hoekhuis;Fizeaustraat 3;156;A;rolstoeltoegankelijk;0;7:30 - 21:00 uur;Oost;4.926776;52.345073
117;Meininger Hotel Amsterdam Amstel;Julianaplein 6;158;A;rolstoeltoegankelijk;0;7:30 - 21:00 uur;Oost;4.919445;52.345844
118;Waternet;Korte Ouderkerkerdijk 7;160;B;rolstoeltoegankelijk met hulp;0;7:30 - 21:00 uur;Oost;4.917892;52.340059
119;Weesper;Weesperzijde 144;161;C;niet rolstoeltoegankelijk;0;7:30 - 21:00 uur;Oost;4.913073;52.348901
120;Grand Cafe Frankendael;Middenweg 116;162;AP;rolstoeltoegankelijk met GPA;0;7:30 - 21:00 uur;Oost;4.937625;52.34906
121;OLVG locatie Oost;Oosterpark 9;163;AP;rolstoeltoegankelijk met GPA;0;7:30 - 21:00 uur;Oost;4.91692;52.358389
122;Oosterparkkerk;Oosterpark 5;164;C;niet rolstoeltoegankelijk;0;7:30 - 21:00 uur;Oost;4.91589;52.360021
123;Muiderkerk;Linnaeusstraat 37;166;AP;rolstoeltoegankelijk met GPA;0;7:30 - 21:00 uur;Oost;4.924416;52.36169
124;BOOST Transvaal;Tegenover ingang Danie Theronstraat 2;167;AP;rolstoeltoegankelijk met GPA;0;7:30 - 21:00 uur;Oost;4.915733;52.352651
125;QO Amsterdam;Amstelvlietstraat 4;168;AP;rolstoeltoegankelijk met GPA;0;7:30 - 21:00 uur;Oost;4.920948;52.338264
126;Het Parkhuis;Anfieldroad 110;169;A;rolstoeltoegankelijk;0;7:30 - 21:00 uur;Oost;4.947924;52.343508
127;Sportzaal J.F. van Hengelstraat;J.F. van Hengelstraat 100;170;AP;rolstoeltoegankelijk met GPA;0;7:30 - 21:00 uur;Oost;4.945738;52.374399
128;Gymzaal Laterna Magica;Eva Besnyöstraat 491;171;A;rolstoeltoegankelijk;0;7:30 - 21:00 uur;Oost;5.00796;52.350079
129;4e Montessorischool De Pinksterbloem;ingang Oetgensstraat - gymzaal;173-174;A;rolstoeltoegankelijk;0;7:30 - 21:00 uur;Oost;4.90846;52.354742
130;Panama Amsterdam;Oostelijke Handelskade 4;175;A;rolstoeltoegankelijk;0;7:30 - 21:00 uur;Oost;4.930431;52.374997
131;Sporthal Wethouder Verheij;Polderweg 300;177;AP;rolstoeltoegankelijk met GPA;0;7:30 - 21:00 uur;Oost;4.931355;52.35788
132;Gymzaal Lidwinaschool;Simon Stevinstraat 48;178-179;AP;rolstoeltoegankelijk met GPA;0;7:30 - 21:00 uur;Oost;4.924993;52.352795
133;Vrije Universiteit Amsterdam;De Boelelaan 1105;200;AP;rolstoeltoegankelijk met GPA;0;7:30 - 21:00 uur;Zuid;4.866482;52.334586
134;Doven Ontmoetings Centrum;Stadhouderskade 89;201;AP;rolstoeltoegankelijk met GPA;0;7:30 - 21:00 uur;Zuid;4.895321;52.357619
135;V.B.S.K.  Albert Cuyp;Albert Cuypstraat 241;203;C;niet rolstoeltoegankelijk;0;7:30 - 21:00 uur;Zuid;4.897606;52.35672
136;Studio Automat Amsterdam;Tweede Jan Steenstraat 80-82;204;AP;rolstoeltoegankelijk met GPA;0;7:30 - 21:00 uur;Zuid;4.902129;52.356523
137;Oranjekerk;2e Van der Helststraat 1-3;206;AP;rolstoeltoegankelijk met GPA;0;7:30 - 21:00 uur;Zuid;4.895431;52.352937
138;Oranjekerk;2e Van der Helststraat 1-3;207;AP;rolstoeltoegankelijk met GPA;0;7:30 - 21:00 uur;Zuid;4.895431;52.352937
139;Het Amsterdams Lyceum;Pieter Lastmankade 1;208;AP;rolstoeltoegankelijk met GPA;0;7:30 - 21:00 uur;Zuid;4.864674;52.351034
140;NH Museum Quarter;Hobbemakade 50;210;B;rolstoeltoegankelijk met hulp;0;7:30 - 21:00 uur;Zuid;4.886122;52.355819
141;Amsterdam UMC. locatie VUmc;De Boelelaan 1117;211;AP;rolstoeltoegankelijk met GPA;0;7:30 - 21:00 uur;Zuid;4.859835;52.334646
142;De Kleine Valk;Marie Heinekenplein 5;212;B;rolstoeltoegankelijk met hulp;0;7:30 - 21:00 uur;Zuid;4.891463;52.357333
143;De Edelsteen;Smaragdplein 3;213-214;B;rolstoeltoegankelijk met hulp;0;7:30 - 21:00 uur;Zuid;4.905669;52.350893
144;Senioren bewonersruimte;Servaes Noutsstraat 3 t/m 99;215;AP;rolstoeltoegankelijk met GPA;0;7:30 - 21:00 uur;Zuid;4.904358;52.355409
145;Het Amsterdams Lyceum;Pieter Lastmankade 1;216;AP;rolstoeltoegankelijk met GPA;0;7:30 - 21:00 uur;Zuid;4.864674;52.351034
146;3e Daltonschool hoofdgebouw;Van Ostadestraat 201-203;217-218;B;rolstoeltoegankelijk met hulp;0;7:30 - 21:00 uur;Zuid;4.897543;52.353107
147;Buurtgebouw HdK;Henrick de Keijserplein 45;219;B;rolstoeltoegankelijk met hulp;0;7:30 - 21:00 uur;Zuid;4.898064;52.351105
148;Sportcentrum De Pijp;Lizzy Ansinghstraat 88;221;B;rolstoeltoegankelijk met hulp;0;7:30 - 21:00 uur;Zuid;4.89372;52.349748
149;Rijn 58;Rijnstraat 58;222;AP;rolstoeltoegankelijk met GPA;0;7:30 - 21:00 uur;Zuid;4.90485;52.346594
150;d`Oude Raai;Ferdinand Bolstraat 321;223;AP;rolstoeltoegankelijk met GPA;0;7:30 - 21:00 uur;Zuid;4.891699;52.349317
151;Apollohal;Stadionweg 5 (linker ingang);224;AP;rolstoeltoegankelijk met GPA;0;7:30 - 21:00 uur;Zuid;4.884449;52.348064
152;Gezond in Zuid Paramedisch centrum;Ruysdaelstraat 49 A (rode G op de deur);225;AP;rolstoeltoegankelijk met GPA;0;7:30 - 21:00 uur;Zuid;4.883663;52.353903
153;Cornelis Vrijschool;Van de Veldestraat 3;226;C;niet rolstoeltoegankelijk;0;7:30 - 21:00 uur;Zuid;4.879812;52.359584
154;IVKO school;Rustenburgerstraat 15;227;AP;rolstoeltoegankelijk met GPA;0;7:30 - 21:00 uur;Zuid;4.90577;52.353779
155;De Coenen;Joh.M. Coenenstraat 4-6;229-230;A;rolstoeltoegankelijk;0;7:30 - 21:00 uur;Zuid;4.881535;52.352626
156;Obrechtkerk;Jacob Obrechtstraat 30;232;B;rolstoeltoegankelijk met hulp;0;7:30 - 21:00 uur;Zuid;4.875349;52.355773
157;Gymzaal Nicolaas Maesschool;Heinzestraat 9;233;AP;rolstoeltoegankelijk met GPA;0;7:30 - 21:00 uur;Zuid;4.876868;52.352579
158;Boxing Gym Abov;Amstelkade 13;234;B;rolstoeltoegankelijk met hulp;0;7:30 - 21:00 uur;Zuid;4.907507;52.349211
159;Stichting Munganga;Schinkelhavenstraat 27 hs;236;B;rolstoeltoegankelijk met hulp;0;7:30 - 21:00 uur;Zuid;4.854039;52.354285
160;Basisschool Elout;Cornelis Krusemanstraat 68;237;C;niet rolstoeltoegankelijk;0;7:30 - 21:00 uur;Zuid;4.85887;52.35038
161;OBS De Dongeschool;Geulstraat 9;238;B;rolstoeltoegankelijk met hulp;0;7:30 - 21:00 uur;Zuid;4.893628;52.34484
162;De Derde Schinkel;Derde Schinkelstraat 9;239;B;rolstoeltoegankelijk met hulp;0;7:30 - 21:00 uur;Zuid;4.855229;52.352907
163;Flatgebouw Baarsstraat;Baarsstraat 31;240;AP;rolstoeltoegankelijk met GPA;0;7:30 - 21:00 uur;Zuid;4.854708;52.349858
164;Hervormd Lyceum Zuid;Brahmsstraat 7;243;C;niet rolstoeltoegankelijk;0;7:30 - 21:00 uur;Zuid;4.879061;52.348194
165;St. Ignatius Gymnasium;ingang Adama van Scheltemaplein;244-245;B;rolstoeltoegankelijk met hulp;0;7:30 - 21:00 uur;Zuid;4.873936;52.349772
166;Huis van de Wijk Olympus / Europaschool;Hygiëaplein 10;246;AP;rolstoeltoegankelijk met GPA;0;7:30 - 21:00 uur;Zuid;4.862857;52.34709
167;Willem de Zwijgerkerk;Olympiaweg 14;247-248;AP;rolstoeltoegankelijk met GPA;0;7:30 - 21:00 uur;Zuid;4.863064;52.349436
168;Olympiaschool;Stadionkade 113 B;249;B;rolstoeltoegankelijk met hulp;0;7:30 - 21:00 uur;Zuid;4.86227;52.343321
169;Olympisch Stadion;Olympisch Stadion 2;250;B;rolstoeltoegankelijk met hulp;0;7:30 - 21:00 uur;Zuid;4.855118;52.343802
170;Bibliotheek Olympisch Kwartier;Laan der Hesperiden 18;252;AP;rolstoeltoegankelijk met GPA;0;7:30 - 21:00 uur;Zuid;4.855585;52.345242
171;Gymzaal;Willem Witsenstraat 8;253;B;rolstoeltoegankelijk met hulp;0;7:30 - 21:00 uur;Zuid;4.870217;52.351454
172;OBS Oscar Carré;1e Jan vd Heijdenstr 161;255;C;niet rolstoeltoegankelijk;0;7:30 - 21:00 uur;Zuid;4.893175;52.353862
173;Stichting Munganga;Schinkelhavenstraat 27 hs;256;B;rolstoeltoegankelijk met hulp;0;7:30 - 21:00 uur;Zuid;4.854039;52.354285
174;Dep. OBS De Notenkraker;Leiduinstraat 13;257-258;AP;rolstoeltoegankelijk met GPA;0;7:30 - 21:00 uur;Zuid;4.847085;52.353957
175;OBS Oscar Carré;1e Jan vd Heijdenstr 161;259;C;niet rolstoeltoegankelijk;0;7:30 - 21:00 uur;Zuid;4.893175;52.353862
176;Cornelis Vrijschool;Van de Veldestraat 3;260;C;niet rolstoeltoegankelijk;0;7:30 - 21:00 uur;Zuid;4.879812;52.359584
177;Gymzaal Nicolaas Maesschool;Heinzestraat 9;261;AP;rolstoeltoegankelijk met GPA;0;7:30 - 21:00 uur;Zuid;4.876868;52.352579
178;HoofdKwartier;Hoofddorpweg 25;262;A;rolstoeltoegankelijk;0;7:30 - 21:00 uur;Zuid;4.850762;52.350882
179;Tobiasschool;Rietwijkerstraat 55;263-264;A;rolstoeltoegankelijk;0;7:30 - 21:00 uur;Zuid;4.847155;52.349437
180;OBS De Dongeschool;Geulstraat 9;265;C;niet rolstoeltoegankelijk;0;7:30 - 21:00 uur;Zuid;4.893628;52.34484
181;Anne Frankschool;Niersstraat 41;266;B;rolstoeltoegankelijk met hulp;0;7:30 - 21:00 uur;Zuid;4.894002;52.342802
182;Pastorie Vredeskerk;Pijnackerstraat 9;267-268;B;rolstoeltoegankelijk met hulp;0;7:30 - 21:00 uur;Zuid;4.890046;52.350164
183;Anne Frankschool;Niersstraat 41;270;B;rolstoeltoegankelijk met hulp;0;7:30 - 21:00 uur;Zuid;4.894002;52.342802
184;Knijn Bowling;Scheldeplein 3;271;C;niet rolstoeltoegankelijk;0;7:30 - 21:00 uur;Zuid;4.891359;52.344327
185;Centrum Karunika;Meerhuizenplein 11;272;B;rolstoeltoegankelijk met hulp;0;7:30 - 21:00 uur;Zuid;4.908231;52.347381
186;gymzaal De Rivierenschool;Lekstraat 33 A;274-275;B;rolstoeltoegankelijk met hulp;0;7:30 - 21:00 uur;Zuid;4.90423;52.344237
187;Remise Lekstraat;Kromme-Mijdrechtstraat 25;276-277;AP;rolstoeltoegankelijk met GPA;0;7:30 - 21:00 uur;Zuid;4.909085;52.345757
188;gymzaal De Rivierenschool;Lekstraat 33 A;278;B;rolstoeltoegankelijk met hulp;0;7:30 - 21:00 uur;Zuid;4.90423;52.344237
189;Buurtgebouw HdK;Henrick de Keijserplein 45;283;B;rolstoeltoegankelijk met hulp;0;7:30 - 21:00 uur;Zuid;4.898064;52.351105
190;Thomaskerk;Prinses Irenestraat 36;286;A;rolstoeltoegankelijk;0;7:30 - 21:00 uur;Zuid;4.874877;52.341974
191;Revalidatie- en Zorgcentrum Vreugdehof;De Klencke 111;287;AP;rolstoeltoegankelijk met GPA;0;7:30 - 21:00 uur;Zuid;4.884272;52.333854
192;NH Amsterdam Zuid;Van Leijenberghlaan 221;289;A;rolstoeltoegankelijk;0;7:30 - 21:00 uur;Zuid;4.88004;52.326664
193;Zorgcentrum De Buitenhof;Nieuw Herlaer 2;290;AP;rolstoeltoegankelijk met GPA;0;7:30 - 21:00 uur;Zuid;4.888196;52.326662
194;Andrieskerk;Arent Janszoon Ernststr 869;292;AP;rolstoeltoegankelijk met GPA;0;7:30 - 21:00 uur;Zuid;4.868098;52.331843
195;ROC Zuid;Europaboulevard 13;293-294;B;rolstoeltoegankelijk met hulp;0;7:30 - 21:00 uur;Zuid;4.892806;52.339588
196;Gymzaal bij school De Ark;Zuid-Hollandstraat 7;295-296;B;rolstoeltoegankelijk met hulp;0;7:30 - 21:00 uur;Zuid;4.874745;52.326623
197;Menno Simonszhuis/Dynamo;Noordhollandstraat 17 A;297;AP;rolstoeltoegankelijk met GPA;0;7:30 - 21:00 uur;Zuid;4.866514;52.326794
198;Marius ten Catehof;Van Nijenrodeweg 937;298;AP;rolstoeltoegankelijk met GPA;0;7:30 - 21:00 uur;Zuid;4.858821;52.327317
199;Woonzorgcentrum Buitenveldert;Doornburg 2;299;AP;rolstoeltoegankelijk met GPA;0;7:30 - 21:00 uur;Zuid;4.861367;52.322888
200;WTC Toren A t/m G;Strawinskylaan 77 ingang Zuidplein;300;A;rolstoeltoegankelijk;1;7:30 - 20:00 uur;Zuid;4.873532;52.340198
201;Sporthallen Zuid;Burgerweeshuispad 54;301;AP;rolstoeltoegankelijk met GPA;0;7:30 - 21:00 uur;Zuid;4.854107;52.339977
202;Portocabin IJselplein;t/o Reggestraat 20;302-303;C;niet rolstoeltoegankelijk;0;7:30 - 21:00 uur;Zuid;4.901743;52.347543
203;Multifunctioneel Centrum Binnenhof;Arent Janszoon Ernststr 112;305-306;AP;rolstoeltoegankelijk met GPA;0;7:30 - 21:00 uur;Zuid;4.87823;52.332309
204;Vrije Universiteit Amsterdam;De Boelelaan 1105;307;AP;rolstoeltoegankelijk met GPA;0;7:30 - 21:00 uur;Zuid;4.866482;52.334586
205;Kinderopvang Parvaneh;Van Gentstraat 16 A;311;B;rolstoeltoegankelijk met hulp;0;7:30 - 21:00 uur;West;4.851842;52.383117
206;KBS De Boomgaard;Gibraltarstraat 61;313;B;rolstoeltoegankelijk met hulp;0;7:30 - 21:00 uur;West;4.850041;52.383837
207;School Tijl Uilenspiegel;Tijl Uilenspiegelstraat 11 - ingang achterzijde t.h.v. Lanseloetstr;315-316;B;rolstoeltoegankelijk met hulp;0;7:30 - 21:00 uur;West;4.849172;52.378
208;Brede School de Springplank;Robert Scottstraat 28;317;AP;rolstoeltoegankelijk met GPA;0;7:30 - 21:00 uur;West;4.846406;52.373556
209;Wachterliedpaviljoen;Wachterliedplantsoen 2;319;AP;rolstoeltoegankelijk met GPA;0;7:30 - 21:00 uur;West;4.853598;52.377489
210;Narcis-Queridoschool;Jan den Haenstraat 41;321;AP;rolstoeltoegankelijk met GPA;0;7:30 - 21:00 uur;West;4.86064;52.379372
211;Centrum voor Ouderen De Boeg;Hoofdweg 495;325-326;AP;rolstoeltoegankelijk met GPA;0;7:30 - 21:00 uur;West;4.846639;52.376146
212;De Volksuniversiteit;Bos en Lommerplein 176;327;AP;rolstoeltoegankelijk met GPA;0;7:30 - 21:00 uur;West;4.84514;52.378646
213;Bos en Lommerschool;Meimorgenstraat 2;328;B;rolstoeltoegankelijk met hulp;0;7:30 - 21:00 uur;West;4.840039;52.379027
214;de Wiltzangh;Hertspieghelweg 55;330;B;rolstoeltoegankelijk met hulp;0;7:30 - 21:00 uur;West;4.85055;52.381817
215;t Landhuis;Gerard Callenburgstraat 38;331;AP;rolstoeltoegankelijk met GPA;0;7:30 - 21:00 uur;West;4.859231;52.379276
216;MBO College West;Laan van Spartaan 2;334;AP;rolstoeltoegankelijk met GPA;0;7:30 - 21:00 uur;West;4.840608;52.373377
217;A.K.C. Blauw-Wit;Joos Banckersweg 18 A;335;B;rolstoeltoegankelijk met hulp;0;7:30 - 21:00 uur;West;4.856703;52.375778
218;Molen van Sloten;Akersluis 10;341;AP;rolstoeltoegankelijk met GPA;0;7:30 - 21:00 uur;Nieuw-West;4.792208;52.341561
219;Vrouw en Vaart;President Allendelaan 733;342;B;rolstoeltoegankelijk met hulp;0;7:30 - 21:00 uur;Nieuw-West;4.805334;52.365677
220;Het Talent;gymlokaal ingang Veldzicht;343-344;B;rolstoeltoegankelijk met hulp;0;7:30 - 21:00 uur;Nieuw-West;4.799059;52.362806
221;Osdorpse Montessorischool;Hoekenes 59;346;AP;rolstoeltoegankelijk met GPA;0;7:30 - 21:00 uur;Nieuw-West;4.80261;52.353971
222;Stadsloket Nieuw-West;Osdorpplein 1000;347;AP;rolstoeltoegankelijk met GPA;0;7:30 - 21:00 uur;Nieuw-West;4.80667;52.357775
223;Dienstencentrum Osdorperhof;Pieter Calandlaan 84;348;AP;rolstoeltoegankelijk met GPA;0;7:30 - 21:00 uur;Nieuw-West;4.812611;52.354748
224;Ichthusschool;Louis Davidsstraat 103;349;B;rolstoeltoegankelijk met hulp;0;7:30 - 21:00 uur;Nieuw-West;4.81066;52.352402
225;Verenigingsgebouw Nivon;Ouwerdingenpad 3;351;B;rolstoeltoegankelijk met hulp;0;7:30 - 21:00 uur;Nieuw-West;4.795137;52.362931
226;Zorgcentrum Leo Polak;Saaftingestraat 8;352;AP;rolstoeltoegankelijk met GPA;0;7:30 - 21:00 uur;Nieuw-West;4.789133;52.362865
227;De Wachter;Wolbrantskerkweg 54 - 56;354;AP;rolstoeltoegankelijk met GPA;0;7:30 - 21:00 uur;Nieuw-West;4.797409;52.356606
228;Nieuw Amstelrade;Clauskindereweg 21;356;AP;rolstoeltoegankelijk met GPA;0;7:30 - 21:00 uur;Nieuw-West;4.794843;52.355245
229;Basisschool de Odyssee;Cycladenlaan 2 A;357;A;rolstoeltoegankelijk;0;7:30 - 21:00 uur;Nieuw-West;4.79305;52.348837
230;Huis van de Wijk De Aker;Noorderakerweg 2;359-361;A;rolstoeltoegankelijk;0;7:30 - 21:00 uur;Nieuw-West;4.782149;52.355055
231;Jenaplanschool Atlantis;Schuitenhuisstraat 5;362;A;rolstoeltoegankelijk;0;7:30 - 21:00 uur;Nieuw-West;4.786858;52.357443
232;Ymere Amsterdam-West;Anderlechtlaan 200;363;A;rolstoeltoegankelijk;0;7:30 - 21:00 uur;Nieuw-West;4.811123;52.342661
233;Horizon Brenner;Brenner 9 - ingang Monte Rosaplein-schoolpleinzijde;364-365;A;rolstoeltoegankelijk;0;7:30 - 21:00 uur;Nieuw-West;4.775411;52.350814
234;Obs de Horizon;zij-ingang Iwan Kantemanplein;366-367;C;niet rolstoeltoegankelijk;0;7:30 - 21:00 uur;Nieuw-West;4.788389;52.35053
235;OBA Osdorp;Osdorpplein 16;371;AP;rolstoeltoegankelijk met GPA;0;7:30 - 21:00 uur;Nieuw-West;4.806788;52.358926
236;Basisschool De Wereldburger - gymgebouw;Koos Vorrinkweg 5;376-377;AP;rolstoeltoegankelijk met GPA;0;7:30 - 21:00 uur;Nieuw-West;4.800052;52.35315
237;De Spaarndammerhout;Revaleiland 1;391-392;A;rolstoeltoegankelijk;0;7:30 - 21:00 uur;West;4.878756;52.392789
238;Museum Het Schip;Oostzaanstraat 45;393;AP;rolstoeltoegankelijk met GPA;0;7:30 - 21:00 uur;West;4.873952;52.390315
239;De Bogt Westerbeer;Polanenstraat 6;394-395;AP;rolstoeltoegankelijk met GPA;0;7:30 - 21:00 uur;West;4.87833;52.389003
240;De Zeeheld;Roggeveenstraat 14;396-397;C;niet rolstoeltoegankelijk;0;7:30 - 21:00 uur;West;4.886825;52.389875
241;De Koperen Knoop;Van Limburg Stirumstraat 119;398-399;AP;rolstoeltoegankelijk met GPA;0;7:30 - 21:00 uur;West;4.876704;52.38346
242;Westerparkschool;Van Hogendorpplein 11;401-402;AP;rolstoeltoegankelijk met GPA;0;7:30 - 21:00 uur;West;4.87704;52.384882
243;School De Bron;Van Beuningenstraat 141;403-404;B;rolstoeltoegankelijk met hulp;0;7:30 - 21:00 uur;West;4.874484;52.382336
244;Cartesius Lyceum;ingang Van Oldenbarneveldtplein 16;405;B;rolstoeltoegankelijk met hulp;0;7:30 - 21:00 uur;West;4.876429;52.377968
245;Van Hogendorphal;Van Hogendorpstraat 921;406;B;rolstoeltoegankelijk met hulp;0;7:30 - 21:00 uur;West;4.867589;52.381641
246;Amsta locatie De Poort;Hugo de Grootkade 20;408-409;AP;rolstoeltoegankelijk met GPA;0;7:30 - 21:00 uur;West;4.873371;52.373209
247;Marcanti College;Jan van Galenstraat 31;410;AP;rolstoeltoegankelijk met GPA;0;7:30 - 21:00 uur;West;4.866137;52.375217
248;Dependance Westerparkschool;Van Hallstraat 621;411-412;AP;rolstoeltoegankelijk met GPA;0;7:30 - 21:00 uur;West;4.872931;52.379489
249;Openbare Bibliotheek Amsterdam;Van Hallstraat 615;413;AP;rolstoeltoegankelijk met GPA;0;7:30 - 21:00 uur;West;4.872048;52.379665
250;Buurthuis De Havelaar;Douwes Dekkerstraat 2;421;AP;rolstoeltoegankelijk met GPA;0;7:30 - 21:00 uur;West;4.865416;52.369166
251;Galerie Beeldend Gesproken;Hannie Dankbaarpassage 23;423;A;rolstoeltoegankelijk;0;7:30 - 21:00 uur;West;4.868823;52.366601
252;Schoolgebouw ROC;Da Costastraat 64;424;B;rolstoeltoegankelijk met hulp;0;7:30 - 21:00 uur;West;4.874382;52.368351
253;Brede School De Kinkerbuurt;ingang Nicolaas Beetsplantsoen;426-427;AP;rolstoeltoegankelijk met GPA;0;7:30 - 21:00 uur;West;4.865762;52.364655
254;Schoolgebouw Winterkoninkje;Jan Pieter Heijestraat 45;428-429;AP;rolstoeltoegankelijk met GPA;0;7:30 - 21:00 uur;West;4.863009;52.365317
255;Leonardo da Vinci school;Nassaukade 342 A;430;A;rolstoeltoegankelijk;0;7:30 - 21:00 uur;West;4.876066;52.367468
256;Mentrum;1e C Huygensstr 38;431-432;AP;rolstoeltoegankelijk met GPA;0;7:30 - 21:00 uur;West;4.873646;52.36469
257;Vondelstede;Anna van den Vondelstr 30;433-434;AP;rolstoeltoegankelijk met GPA;0;7:30 - 21:00 uur;West;4.869732;52.36035
258;Wackersacademie;Eerste Helmersstraat 271;436-437;AP;rolstoeltoegankelijk met GPA;0;7:30 - 21:00 uur;West;4.864048;52.360585
259;Annie M.G. Schmidt;Pieter Langendijkstraat 44;439-440;AP;rolstoeltoegankelijk met GPA;0;7:30 - 21:00 uur;West;4.860601;52.360355
260;De Nieuwe Liefde;Da Costakade 102;441-442;AP;rolstoeltoegankelijk met GPA;0;7:30 - 21:00 uur;West;4.871648;52.369804
261;De Klinker;Borgerstraat 45;443;AP;rolstoeltoegankelijk met GPA;0;7:30 - 21:00 uur;West;4.867765;52.365374
262;Philadelphia Zorg Amsterdam;Kinkerstraat 42;444;AP;rolstoeltoegankelijk met GPA;0;7:30 - 21:00 uur;West;4.87405;52.367846
263;Conscious Hotel The Tire Station;Amstelveenseweg 3. via Sticky Fingers;445;A;rolstoeltoegankelijk;0;7:30 - 21:00 uur;West;4.855382;52.357275
264;Theater de Cameleon;Derde Kostverlorenkade 35;446;AP;rolstoeltoegankelijk met GPA;0;7:30 - 21:00 uur;West;4.855954;52.358608
265;Nieuw Vredenburgh;Postjesweg 125;460-461;AP;rolstoeltoegankelijk met GPA;0;7:30 - 21:00 uur;West;4.851252;52.363827
266;Aslan Muziekcentrum;Corantijnstraat 9;462-463;B;rolstoeltoegankelijk met hulp;0;7:30 - 21:00 uur;West;4.852408;52.361675
267;Joop Westerweelschool;Balboaplein 44;465-467;AP;rolstoeltoegankelijk met GPA;0;7:30 - 21:00 uur;West;4.856198;52.368855
268;De Wending;Witte de Withplein 5;468;A;rolstoeltoegankelijk;0;7:30 - 21:00 uur;West;4.858373;52.368721
269;Openbare Bibliotheek Amsterdam;Mercatorplein 89;469-470;AP;rolstoeltoegankelijk met GPA;0;7:30 - 21:00 uur;West;4.85026;52.369386
270;Rosa Boekdrukkerschool;Vancouverstraat 3-5;471-472;B;rolstoeltoegankelijk met hulp;0;7:30 - 21:00 uur;West;4.855354;52.373165
271;School De Roos;Reinier Claeszenplein 12;474-475;B;rolstoeltoegankelijk met hulp;0;7:30 - 21:00 uur;West;4.860818;52.374232
272;Al Maes;Cornelis Dirkszstraat 6;477;AP;rolstoeltoegankelijk met GPA;0;7:30 - 21:00 uur;West;4.857089;52.371717
273;Het Sieraad;Postjesweg 1;479;A;rolstoeltoegankelijk;0;7:30 - 21:00 uur;West;4.859348;52.364546
274;Dansschool Meneer de Wit;Baarsjesweg 202;480;AP;rolstoeltoegankelijk met GPA;0;7:30 - 21:00 uur;West;4.860249;52.365323
275;Buurthuis Jacob Maris;Columbusplein 253;482;AP;rolstoeltoegankelijk met GPA;0;7:30 - 21:00 uur;West;4.855282;52.365705
276;Chassé Dance Studios;Chasséstraat 64;483-484;A;rolstoeltoegankelijk;0;7:30 - 21:00 uur;West;4.861485;52.370011
277;Huizingaschool;Jacob Geelstraat 42 - (ingang links om de hoek);491;A;rolstoeltoegankelijk;0;7:30 - 21:00 uur;Nieuw-West;4.830222;52.360791
278;De Schutse;Comeniusstraat 20;493;AP;rolstoeltoegankelijk met GPA;0;7:30 - 21:00 uur;Nieuw-West;4.822591;52.359443
279;BSO De Groeiwereld;Lakenhalstraat 2;494;B;rolstoeltoegankelijk met hulp;0;7:30 - 21:00 uur;Nieuw-West;4.832805;52.364371
280;Pro Rege Basisschool;Hemsterhuisstraat 87 A;495;B;rolstoeltoegankelijk met hulp;0;7:30 - 21:00 uur;Nieuw-West;4.823233;52.36092
281;Calvijn College;Pieter Calandlaan 3;496;AP;rolstoeltoegankelijk met GPA;0;7:30 - 21:00 uur;Nieuw-West;4.831572;52.356187
282;Huis van de wijk Het Anker;Jacques Veltmanstraat 427;497;AP;rolstoeltoegankelijk met GPA;0;7:30 - 21:00 uur;Nieuw-West;4.833091;52.353246
283;Obs De Vlaamse Reus;Hechtelstraat 49 (zij-ingang);500-501;AP;rolstoeltoegankelijk met GPA;0;7:30 - 21:00 uur;Nieuw-West;4.817797;52.347475
284;Hogeschool Ipabo;Jan Tooropstraat 136;503-504;A;rolstoeltoegankelijk;0;7:30 - 21:00 uur;Nieuw-West;4.836892;52.367482
285;Verpleeghuis Hof van Sloten;Louwesweg 10;505;AP;rolstoeltoegankelijk met GPA;0;7:30 - 21:00 uur;Nieuw-West;4.823683;52.347386
286;Calvijn College;Pieter Calandlaan 3;506;AP;rolstoeltoegankelijk met GPA;0;7:30 - 21:00 uur;Nieuw-West;4.831572;52.356187
287;Alexander Roozendaalschool;Jan Sluijtersstraat 3 (ingang gymzaal);508;B;rolstoeltoegankelijk met hulp;0;7:30 - 21:00 uur;Nieuw-West;4.839529;52.359666
288;Westcord Fashion Hotel Amsterdam;Hendrikje Stoffelsstraat 1;509;A;rolstoeltoegankelijk;0;7:30 - 21:00 uur;Nieuw-West;4.844237;52.357575
289;Brede school Fiep Westendorp;Overschiestraat 168 A;510-511;AP;rolstoeltoegankelijk met GPA;0;7:30 - 21:00 uur;Nieuw-West;4.839251;52.348879
290;R.K. Basisschool De Mijlpaal;Westmallepad 11;513-514;A;rolstoeltoegankelijk;0;7:30 - 21:00 uur;Nieuw-West;4.806441;52.347285
291;Dependance De Mijlpaal;Anderlechtlaan 1;515-516;A;rolstoeltoegankelijk;0;7:30 - 21:00 uur;Nieuw-West;4.812109;52.344724
292;Oostoever;Bonnefantenstraat 10;517;A;rolstoeltoegankelijk;0;7:30 - 21:00 uur;Nieuw-West;4.829134;52.36563
293;Cordaan;Ottho Heldringstraat 13 A;518;AP;rolstoeltoegankelijk met GPA;0;7:30 - 21:00 uur;Nieuw-West;4.832946;52.349596
294;Woon- en Zorgcentrum De Riekerhof;Johan Jongkindstraat 3;520;A;rolstoeltoegankelijk;0;7:30 - 21:00 uur;Nieuw-West;4.840225;52.359148
295;Regenbooggemeente;Van Ollefenstraat 9;521;A;rolstoeltoegankelijk;0;7:30 - 21:00 uur;Nieuw-West;4.825336;52.354782
296;Het Meervoud;August Allebéplein 5;523-524;AP;rolstoeltoegankelijk met GPA;0;7:30 - 21:00 uur;Nieuw-West;4.839032;52.363088
297;Leger des Heils De Kandelaar;Burg Vening Meineszlaan 64;525;AP;rolstoeltoegankelijk met GPA;0;7:30 - 21:00 uur;Nieuw-West;4.833055;52.383228
298;Buurtkamer Tante Ali;Burg Vening Meineszlaan 185;527;B;rolstoeltoegankelijk met hulp;0;7:30 - 21:00 uur;Nieuw-West;4.823528;52.382752
299;Stichting De Brug;Aalbersestraat 248 A;528;AP;rolstoeltoegankelijk met GPA;0;7:30 - 21:00 uur;Nieuw-West;4.798156;52.379941
300;Al Wafa Islamitische Basisschool;Harry Koningsbergerstr 30;531;B;rolstoeltoegankelijk met hulp;0;7:30 - 21:00 uur;Nieuw-West;4.836715;52.380594
301;Visio Amsterdam Onderwijs;Slotermeerlaan 103;532;B;rolstoeltoegankelijk met hulp;0;7:30 - 21:00 uur;Nieuw-West;4.819923;52.37869
302;Basisschool Veerkracht;Van Moerkerkenstraat 89;536;B;rolstoeltoegankelijk met hulp;0;7:30 - 21:00 uur;Nieuw-West;4.810319;52.378617
303;Woonzorgcentrum Nieuw Geuzenveld;Cornelis Outshoornstraat 126;537;A;rolstoeltoegankelijk;0;7:30 - 21:00 uur;Nieuw-West;4.796306;52.382107
304;`t Koggeschip Katholieke Basisschool;Abraham Kuyperplein 2;538;A;rolstoeltoegankelijk;0;7:30 - 21:00 uur;Nieuw-West;4.802538;52.38292
305;OBA Slotermeer;Slotermeerlaan 103 E;539;AP;rolstoeltoegankelijk met GPA;0;7:30 - 21:00 uur;Nieuw-West;4.820238;52.379312
306;Tuinstadhuis Geuzenveld;Plein `40-`45 nr. 1;540-541;AP;rolstoeltoegankelijk met GPA;0;7:30 - 21:00 uur;Nieuw-West;4.821152;52.379101
307;Timotheusschool;Sam van Houtenstraat 2;542;AP;rolstoeltoegankelijk met GPA;0;7:30 - 21:00 uur;Nieuw-West;4.805359;52.379474
308;SBO De Kans;Thomas van Aquinostraat 2;544;B;rolstoeltoegankelijk met hulp;0;7:30 - 21:00 uur;Nieuw-West;4.812439;52.372543
309;Spring High;Herman Poortstraat 17;546;A;rolstoeltoegankelijk;0;7:30 - 21:00 uur;Nieuw-West;4.831551;52.376624
310;Amsta De Raak;Dr. H. Colijnstraat 431;547;AP;rolstoeltoegankelijk met GPA;0;7:30 - 21:00 uur;Nieuw-West;4.806223;52.379685
311;Noordmansschool;Louis Couperusstraat 131;548;C;niet rolstoeltoegankelijk;0;7:30 - 21:00 uur;Nieuw-West;4.824438;52.375899
312;PlusPunt Eigenwijks Geuzenveld;Albardakade 5-7;550;AP;rolstoeltoegankelijk met GPA;0;7:30 - 21:00 uur;Nieuw-West;4.802734;52.378023
313;Oase/De Bron;Willem Kloosstraat 1;551;A;rolstoeltoegankelijk;0;7:30 - 21:00 uur;Nieuw-West;4.822709;52.375576
314;Pieter Jelles Troelstraschool;Dr. H. Colijnstraat 2;555;B;rolstoeltoegankelijk met hulp;0;7:30 - 21:00 uur;Nieuw-West;4.806603;52.375291
315;Meininger Hotel;Orlyplein 1;556;A;rolstoeltoegankelijk;0;7:30 - 21:00 uur;Nieuw-West;4.837399;52.390609
316;Hotelschool The Hague;Jan Evertsenstraat 171;561;B;rolstoeltoegankelijk met hulp;0;7:30 - 21:00 uur;Nieuw-West;4.843789;52.369024
317;Stadsdeelkantoor Amsterdam-Noord;Buikslotermeerplein 2000;600;AP;rolstoeltoegankelijk met GPA;0;7:30 - 21:00 uur;Noord;4.932927;52.400828
318;Brede Mgr. Bekkersschool;Volendammerweg 160;601;A;rolstoeltoegankelijk;0;7:30 - 21:00 uur;Noord;4.959094;52.391884
319;Evean Korthagenhuis;Amerbos 590;602;AP;rolstoeltoegankelijk met GPA;0;7:30 - 21:00 uur;Noord;4.939881;52.404836
320;Het Tolhuis;Buiksloterweg 7;603;A;rolstoeltoegankelijk;0;7:30 - 21:00 uur;Noord;4.90488;52.383039
321;Het Schouw;Dollardplein 2;604;AP;rolstoeltoegankelijk met GPA;0;7:30 - 21:00 uur;Noord;4.942726;52.398052
322;Wijkgebouw Schellingwoude;Wijkergouw 12;605;A;rolstoeltoegankelijk;0;7:30 - 21:00 uur;Noord;4.965092;52.383736
323;Muziekschool Noord;Alkmaarstraat 10;606;AP;rolstoeltoegankelijk met GPA;0;7:30 - 21:00 uur;Noord;4.951133;52.394767
324;OBS De Driemaster;Binnenvaart 1;607;A;rolstoeltoegankelijk;0;7:30 - 21:00 uur;Noord;4.920865;52.407693
325;OBS Oranje Nassauschool;Ribesstraat 15;608;B;rolstoeltoegankelijk met hulp;0;7:30 - 21:00 uur;Noord;4.915505;52.39348
326;Het Zwanenmeer;Beemsterstraat 491;610;AP;rolstoeltoegankelijk met GPA;0;7:30 - 21:00 uur;Noord;4.949394;52.395309
327;Museum Amsterdam Noord;Zamenhofstraat 28 A;611;A;rolstoeltoegankelijk;0;7:30 - 21:00 uur;Noord;4.926021;52.388129
328;Middelbare School Hogelant;Duinluststraat 20;612;A;rolstoeltoegankelijk;0;7:30 - 21:00 uur;Noord;4.953445;52.395692
329;Speeltuinvereniging Nieuwendam;Monnikendammerplantsoen 12 A;613;B;rolstoeltoegankelijk met hulp;0;7:30 - 21:00 uur;Noord;4.950495;52.389435
330;Protestantse Gemeente Nieuwendam;Brede Kerkepad 6-8 (ingang via hek);614;B;rolstoeltoegankelijk met hulp;0;7:30 - 21:00 uur;Noord;4.940572;52.391636
331;De Die;Loenermark 900;616;AP;rolstoeltoegankelijk met GPA;0;7:30 - 21:00 uur;Noord;4.932036;52.39891
332;OBS De Klimop;Varenweg 6;617;AP;rolstoeltoegankelijk met GPA;0;7:30 - 21:00 uur;Noord;4.916129;52.390076
333;ROC-TOP;NDSM-straat 1;618;A;rolstoeltoegankelijk;0;7:30 - 21:00 uur;Noord;4.888706;52.404236
334;Buurtcentrum de Driehoek;Waddenweg 116;619;A;rolstoeltoegankelijk;0;7:30 - 21:00 uur;Noord;4.928591;52.393882
335;OBS De Kinderboom;Adelaarsweg 113 (ingang speelplaats);621;A;rolstoeltoegankelijk;0;7:30 - 21:00 uur;Noord;4.920273;52.388601
336;OBS Het Vogelnest;Mussenstraat 26;622;B;rolstoeltoegankelijk met hulp;0;7:30 - 21:00 uur;Noord;4.917016;52.38679
337;Buurtcentrum De Meeuw;Motorwal 300;624;AP;rolstoeltoegankelijk met GPA;0;7:30 - 21:00 uur;Noord;4.917775;52.38443
338;Gebouw `t Laantje;Meteorenweg 19 A;627;A;rolstoeltoegankelijk;0;7:30 - 21:00 uur;Noord;4.890684;52.409934
339;Kringloopbedrijf De Lokatie;Distelweg 85;628;A;rolstoeltoegankelijk;0;7:30 - 21:00 uur;Noord;4.904744;52.39279
340;Buurtcentrum De Valk;IJplein 3;629;A;rolstoeltoegankelijk;0;7:30 - 21:00 uur;Noord;4.911093;52.382992
341;Buurtvereniging Bloemenkwartier;Wingerdweg 260 B;630;A;rolstoeltoegankelijk;0;7:30 - 21:00 uur;Noord;4.918718;52.39671
342;Huis van de Wijk;Waterlandplein 302;632;AP;rolstoeltoegankelijk met GPA;0;7:30 - 21:00 uur;Noord;4.954837;52.3931
343;OBS De Bonkelaar;Molenwijk 3;634;AP;rolstoeltoegankelijk met GPA;0;7:30 - 21:00 uur;Noord;4.889737;52.421029
344;Eduard Douwes Dekkerhuis;Schoenerstraat 11;635;AP;rolstoeltoegankelijk met GPA;0;7:30 - 21:00 uur;Noord;4.907701;52.404638
345;Huis van de Wijk;Bezaanjachtplein 243-247;636;A;rolstoeltoegankelijk;0;7:30 - 21:00 uur;Noord;4.916941;52.407695
346;Senioren-flat de Wasknijper;G.J. Scheurleerweg 15;637;A;rolstoeltoegankelijk;0;7:30 - 21:00 uur;Noord;4.92927;52.404993
347;OBS De Vier Windstreken;Parlevinker 11;638;A;rolstoeltoegankelijk;0;7:30 - 21:00 uur;Noord;4.921948;52.410986
348;OBA Molenwijk;Molenwijk 21;640;AP;rolstoeltoegankelijk met GPA;0;7:30 - 21:00 uur;Noord;4.892978;52.417798
349;Cordaan - Het Anker;Klinkerweg 73;642;A;rolstoeltoegankelijk;0;7:30 - 21:00 uur;Noord;4.895726;52.407241
350;SBO De Zeppelin;Bessenpad 1-ingang Mandarijnenstr t/o 12;644;B;rolstoeltoegankelijk met hulp;0;7:30 - 21:00 uur;Noord;4.894739;52.410067
351;Orion College Amsterdam;Beijerlandstraat 2;645;B;rolstoeltoegankelijk met hulp;0;7:30 - 21:00 uur;Noord;4.930413;52.392451
352;OBA van der Pek;Gentiaanstraat 1;646;AP;rolstoeltoegankelijk met GPA;0;7:30 - 21:00 uur;Noord;4.911861;52.390823
353;Twiskehuis;Watermanstraat 2;649;A;rolstoeltoegankelijk;0;7:30 - 21:00 uur;Noord;4.880385;52.416083
354;Buurtcentrum De Evenaar;Kometensingel 189;650;A;rolstoeltoegankelijk;0;7:30 - 21:00 uur;Noord;4.886461;52.414374
355;OBS Twiskeschool;Pandorinastraat 7A (ingang hoofdgebouw);651-652;A;rolstoeltoegankelijk;0;7:30 - 21:00 uur;Noord;4.902019;52.419004
356;OBS De Krijtmolen;Molenwijk 8;654;B;rolstoeltoegankelijk met hulp;0;7:30 - 21:00 uur;Noord;4.891896;52.419861
357;OBS De Vijfsterren;Markengouw 245 A;655;A;rolstoeltoegankelijk;0;7:30 - 21:00 uur;Noord;4.959115;52.394293
358;Basisschool de Satelliet;Kometensingel 54 (hoofd ingang);656;A;rolstoeltoegankelijk;0;7:30 - 21:00 uur;Noord;4.89364;52.415087
359;Dorpshuis de Beke;Dorpsweg Ransdorp 29;657;B;rolstoeltoegankelijk met hulp;0;7:30 - 21:00 uur;Noord;4.994303;52.392374
360;Basisschool Cosmicus Impuls;Het Breed 10;658;A;rolstoeltoegankelijk;0;7:30 - 21:00 uur;Noord;4.933777;52.398189
361;Stichting !WOON team noord;J. Drijverweg 5;659;A;rolstoeltoegankelijk;0;7:30 - 21:00 uur;Noord;4.944264;52.401482
362;Over-Y College;Floraweg 170;660;A;rolstoeltoegankelijk;0;7:30 - 21:00 uur;Noord;4.912481;52.400146
363;Buiksloterkerk;Buiksloterkerkpad 10;663;A;rolstoeltoegankelijk;0;7:30 - 21:00 uur;Noord;4.916093;52.401796
364;Basisschool IKC Noordrijk;Braeburnstraat 1;665;AP;rolstoeltoegankelijk met GPA;0;7:30 - 21:00 uur;Noord;4.903389;52.408
365;Kerk de Ark;Aakstraat 60;670;A;rolstoeltoegankelijk;0;7:30 - 21:00 uur;Noord;4.91271;52.40757
366;Vrije school Kairos;Wognumerplantsoen 2-4;671;A;rolstoeltoegankelijk;0;7:30 - 21:00 uur;Noord;4.949252;52.387444
367;S.O. De Heldring;Bosrankstraat 1;673;A;rolstoeltoegankelijk;0;7:30 - 21:00 uur;Noord;4.906542;52.397767
368;Stadsloket Zuidoost;Anton de Komplein 150;701;AP;rolstoeltoegankelijk met GPA;0;7:30 - 21:00 uur;Zuidoost;4.956479;52.316235
369;Basisschool Klaverblad;Darlingstraat 1;703;A;rolstoeltoegankelijk;0;7:30 - 21:00 uur;Zuidoost;4.949801;52.319761
370;Buurthuis Holendrecht;Holendrechtplein 38;704;AP;rolstoeltoegankelijk met GPA;0;7:30 - 21:00 uur;Zuidoost;4.964845;52.29855
371;Wooncentrum De Venser;Berthold Brechtstraat 1;706;A;rolstoeltoegankelijk;0;7:30 - 21:00 uur;Zuidoost;4.946814;52.31779
372;Wooncentrum De Drecht;Niftrikhof 1;708;AP;rolstoeltoegankelijk met GPA;0;7:30 - 21:00 uur;Zuidoost;4.962287;52.299278
373;Buurthuis Gein;Wisseloord 83;712;AP;rolstoeltoegankelijk met GPA;0;7:30 - 21:00 uur;Zuidoost;4.987048;52.29594
374;School De Ster;Woudrichemstraat 8;714;C;niet rolstoeltoegankelijk;0;7:30 - 21:00 uur;Zuidoost;4.987694;52.294235
375;Jongerencentrum No Limit;Geldershoofd 80;718;A;rolstoeltoegankelijk;0;7:30 - 21:00 uur;Zuidoost;4.971898;52.323462
376;Portocabin naast Station Amsterdam;Bijlmer Arena - Hoekenrode;720;C;niet rolstoeltoegankelijk;1;7:30 - 19:00 uur;Zuidoost;4.948392;52.312458
377;School Het Gein;Cornelis Aarnoutsstraat 80;722-723;A;rolstoeltoegankelijk;0;7:30 - 21:00 uur;Zuidoost;4.993488;52.298766
378;Basisschool De Schakel;Alexander Dumaslaan 17;724;C;niet rolstoeltoegankelijk;0;7:30 - 21:00 uur;Zuidoost;4.941605;52.3239
379;Academisch Medisch Centrum (AMC);Meibergdreef 9;727;AP;rolstoeltoegankelijk met GPA;1;7:00 - 19:00 uur;Zuidoost;4.957813;52.295065
380;Serviceflat Koornhorst;Koornhorst 32;728;AP;rolstoeltoegankelijk met GPA;0;7:30 - 21:00 uur;Zuidoost;4.986583;52.318327
381;Woongroep Surinaamse Ouderen;Randwijkhof 20-50;729;B;rolstoeltoegankelijk met hulp;0;7:30 - 21:00 uur;Zuidoost;4.970839;52.295606
382;Buurtcentrum De Bonte Kraai;Kraaiennest 68;732;AP;rolstoeltoegankelijk met GPA;0;7:30 - 21:00 uur;Zuidoost;4.980067;52.317235
383;Serviceflat Garstkamp;Garstkamp 32;733-734;AP;rolstoeltoegankelijk met GPA;0;7:30 - 21:00 uur;Zuidoost;4.980272;52.325244
384;Evean Henriette Roland Holst;Kortvoort 100;735;AP;rolstoeltoegankelijk met GPA;0;7:30 - 21:00 uur;Zuidoost;4.969784;52.314278
385;Matchzo;Stammerlandweg 10;738;AP;rolstoeltoegankelijk met GPA;0;7:30 - 21:00 uur;Zuidoost;5.014675;52.308811
386;Basisschool Samenspel;Kantershof 641;739;B;rolstoeltoegankelijk met hulp;0;7:30 - 21:00 uur;Zuidoost;4.987514;52.319238
387;Open Schoolgemeenschap Bijlmer;Gulden Kruis 5;740;B;rolstoeltoegankelijk met hulp;0;7:30 - 21:00 uur;Zuidoost;4.965388;52.318622
388;Basisschool Polsstok;EGoli 2;742;AP;rolstoeltoegankelijk met GPA;0;7:30 - 21:00 uur;Zuidoost;4.96035;52.322388
389;Stichting MaDi;Karspeldreef 1009;746;A;rolstoeltoegankelijk;0;7:30 - 21:00 uur;Zuidoost;4.975072;52.314962
390;Wijkcentrum Ala Kondre;Krimpertplein 5;753;B;rolstoeltoegankelijk met hulp;0;7:30 - 21:00 uur;Zuidoost;4.969437;52.316884
391;Lotusschool;Mijehof 406;754;A;rolstoeltoegankelijk;0;7:30 - 21:00 uur;Zuidoost;4.968598;52.300074
392;OBS Nellestein;Leksmondplein 31;755;B;rolstoeltoegankelijk met hulp;0;7:30 - 21:00 uur;Zuidoost;4.980628;52.308798
393;OBA Bijlmerplein/Imagine IC;Bijlmerplein 393;756;AP;rolstoeltoegankelijk met GPA;0;7:30 - 21:00 uur;Zuidoost;4.953509;52.315478
394;Basisschool Mobiel;Reigersbos 313;757-758;AP;rolstoeltoegankelijk met GPA;0;7:30 - 21:00 uur;Zuidoost;4.97575;52.294014
395;Basisschool Shri Laksmi;Janusz Korczakstraat 73;762;AP;rolstoeltoegankelijk met GPA;0;7:30 - 21:00 uur;Zuidoost;4.956643;52.318995
396;Sporthal Gaasperdam;Ravenswaaipad 5;765;AP;rolstoeltoegankelijk met GPA;0;7:30 - 21:00 uur;Zuidoost;4.978245;52.296809
397;Ir. Lely Lyceum;Ravenswaaipad 3;766;AP;rolstoeltoegankelijk met GPA;0;7:30 - 21:00 uur;Zuidoost;4.977556;52.296852
398;Basisschool De Achtsprong;Huntum 14;767;A;rolstoeltoegankelijk;0;7:30 - 21:00 uur;Zuidoost;4.960203;52.308654
399;Kidz Friends;Hogevecht 138 C;769;A;rolstoeltoegankelijk;0;7:30 - 21:00 uur;Zuidoost;4.955916;52.309277
400;Jongerencentrum No Limit;Geldershoofd 80;771;A;rolstoeltoegankelijk;0;7:30 - 21:00 uur;Zuidoost;4.971898;52.323462